circuitid,circuitref,name,location,country,lat,lng,alt,url
1,Альберт-Парк,Albertский парк Гран-при,Мельбурн,Австралия,-37.8497,144.968,10.0,Круг Гран-при Мельбурна
2,Сепанг,Круг בינלאו Sepang,Кuala-Лумпур,Малайзия,2.76083,101.738,,"Сепанг (malay: Sirkuit Internasional Sepang) — автодром в Сепанге, штат Селангор, Малайзия. Автодром используется для проведения Гран-при Малайзии «Формулы-1» и других гоночных событий."
3,Бахрейн,Международный автодром Бахрейна,Сахир,Бахрейн,26.0325,50.5106,,Бахрейнский международный автодром
4,Каталания,Кирпич Барселоны — Каталонии,Монтемло,Испания,41.57,2.26111,,Circ de Barcelona-Catalunya
5,Стамбул,Стамбульский парк,Стамбул,Турция,40.9517,29.405,,Парк в Стамбуле
6,Монако,Шоссейный круг Монако,Монако,Монако,43.7347,7.42056,,"Шоссейная кольцо Монако — это уличная гоночная трасса в Монте-Карло, Монако. Трасса длиной 3,775 км проходит через городскую часть Монте-Карло и соединяет несколько популярных мест в этом районе, включая Раскинг, Басси-Низ, Тью и Кейар."
7,Вилленев,Кирк Жиль де Вилленув,Монреаль,Канада,45.5,-73.5228,,Википедия: Кирасо-Гийом Вильнёв
8,магнийный курс,Кирпич Невера Магни-Корс,Магни-Курс,Франция,46.8642,3.16361,,"Курс Неверса Магни-Корс — это автодром в Франции, расположенный в департаменте Алье в регионе Бургундия-Франш-Конте. Он был построен на территории бывшего военного аэродрома и открыт в 1991 году. Автодром используется для проведения гоночных событий, а также для тестовых заездов и тренировок для команд Формулы-1."
9,Сильверстоун,Сильверстоунский автодром,Серебряный камень,Великобритания,52.0786,-1.01694,,Шашки
10,Хоккенхаймриндж,Хоккенхаймринг,Хоккенхайм,Германия,49.3278,8.56583,,Хоккенхаймринг
11,Хунгароринг,Венгрия,Будапешт,Венгрия,47.5789,19.2486,,"Хунгароринг — автодром в Будапеште, Венгрия. Является домом для Гран-при Венгрии, гонки «Формулы-1» с 1986 года. Трасса имеет длину 3,315 км и проходит через лесный массив, что придает ей уникальные характеристики с многочисленными узкими поворотами и быстрыми секциями."
12,Валенсия,Шоссе Валенсия,Валенсия,Испания,39.4589,-0.331667,,Круговая трасса Валенсии
13,спа,Шоссе Спа-Франкоршамп,Спа,Бельгия,50.4372,5.97139,,"Курс Спа-Франкоршамп - это автодорожный комплекс в Бельгии, расположенный в муниципалитете Спа. Он известен как один из самых быстрых и требующих высоких навыков треков в мире, сочетая сложные повороты с широкими прямыми, что делает его идеальным для гонок с высокой скоростью."
14,Монца,Автонодром Ньурално де Монца,Монца,Италия,45.6156,9.28111,,Автономная Республика Монца
15,Марина-Бей,Марина-Бей-Стрит-Циркит,Марина-Бэй,Сингапур,1.2914,103.864,,Марина-Бэй-Стрит-Кайт
16,фудзи,Фудзи Спидвей,Ояма,Япония,35.3717,138.927,,"Фудзи-Спидвей — трасса для автогонок, расположенная в японской префектуре Шидзуока."
17,Шанхай,Шанхайская международная трасса,Шанхай,Китай,31.3389,121.22,,Шанхайская международная трасса
18,Интерлагос,Автомагистраль имени Хосе Карлос Пейс,Сан-Паулу,Бразилия,-23.7036,-46.6997,,Автоодром Хосе Карлос Пейс
19,Индианаполис,Индианаполис Мотор Спидвей,Индианаполис,США,39.795,-86.2347,,Индианаполисский автодром
20,Нюрбургринг,Нюрбургринг,Нюрнбург,Германия,50.3356,6.9475,,Нюрбургринг
21,Имола,Автодром Энцо и Дино Феррари,Имола,Италия,44.3439,11.7167,,Автово́дно-спортивное у́зело «Энцо и Дино Феррари»
22,Сузука,Сузука-Кантё,Сузука,Япония,34.8431,136.541,,Сузука-циркуит
23,Австрия,A1-Ring,Шпильберг,Австрия,47.2197,14.7647,,A1-Ринг
24,Яс-Марина,Яс-Марина-Крик,Абудаби,ОАЭ,24.4672,54.6031,,Яс-Марина трасса
25,Галвес,Автодром Хуан и Оскар Гальвес,Буенос-Айрес,Аргентина,-34.6943,-58.4593,,Автоодром Оскар Альфредо Гальвес
26,Херес,Циркуто де Херес,Херес-де-ла-Фронтера,Испания,36.7083,-6.03417,,Окружная трасса Хереса
27,Эсторил,Автодром Эсторил,Эсториал,Португалия,38.7506,-9.39417,,Автодромо دو Эштораил
28,Окаяма,Окayama Международный Трасса,Окаяма,Япония,34.915,134.221,,ТИ-картина
29,Ада́дэид,Аделаидский уличный круговой маршрут,Аделаида,Австралия,-34.9272,138.617,,Аделаидская уличная трасса
30,Кьялами,Кьялами,Мидранд,Южная Африка,-25.9894,28.0767,,Кьялами
31,Донингтон,Донингтон-Парк,Замок Донингтон,Великобритания,52.8306,-1.37528,,Донингтон-Парк
32,Родригес,Автомагистраль Херменос Родригес,Мексико-Сити,Мексика,19.4042,-99.0907,,Автоодром Херманос Родригес
33,Феникс,Финиксская уличная трасса,Финикс,США,33.4479,-112.075,,"Википедия: Пионерская улица (англ. Pioneer Street) — уличная гонка, проводимая на городской трассе в Финиксе, штат Аризона, США. Это одна из старейших и самых известных уличных гонок в мире. Гонка проводится ежегодно с 1963 года и привлекает тысячи зрителей и участников со всего мира. Трасса проходит по улицам центра Финикса, включая Пионер-стрит, которая дала название гонке."
34,Рикард,Круг Пола Рикара,Ле-Кастель,Франция,43.2506,5.79167,,Paul Ricard
35,еёга́м,Международный трассир корейского спорта,郡 Yeong암,Корея,34.7333,126.417,,https://ru.wikipedia.org/wiki/Корейский_международный_циркуит
36,Якарепага,Автоодом на международном уровне Нельсона Пике,Рио-де-Жанейро,Бразилия,-22.9756,-43.395,,Автоудобная дорога имени Нельсона Пике
37,Детройт,Детройтский уличный круговой маршрут,Детройт,США,42.3298,-83.0401,,detройтский уличный круг
38,бренды_хатч,Брендс-Хэтч,Кент,Великобритания,51.3569,0.263056,,Бренды Хэтч
39,Зандворт,Парк цирка Зандворт,Зандворт,Нидерланды,52.3888,4.54092,,"Википедия - Circuit Zandvoort


Кирпичный автодром Зандворт (Dutch: Circuit Park Zandvoort) — автодром в Нидерландах, расположенный в деревне Зандворт, провинция Северная Голландия. Автодром известен своими быстрыми поворотами и высокой скоростью трассы, что делает его одним из самых быстрых трейсов в мире автоспорта.

История
Автодром был построен в 1950-х годах и с тех пор стал местом проведения многих престижных гоночных событий, включая Гран-при Нидерландов Формулы-1 с 1950 по 1973 год (за исключением 1963 года) и с 1984 по 1989 год. Автодром также используется для проведения других гоночных серий, таких как гонки на выносливость GT, гонки туринговых автомобилей и мотогонок.

Трасса
Трасса автодрома Зандворт имеет длину 4,260 км (2,642 мили) и состоит из 13 поворотов по направлению против часовой стрелки. Трасса известна своими быстрыми прямыми и крутыми поворотами, что делает ее одной из самых быстрых трасс в мире автоспорта.

Гран-при Нидерландов
С 1950 по 1973 год и снова с 1984 по 1989 год автодром Зандворт был местом проведения Гран-при Нидерландов Формулы-1. За это время на трассе были проведены 21 гран-при, включая 11 победных гонок Хуана Мануэля Фанхио, который выиграл пять из них.

В настоящее время
Сегодня автодром Зандворт по-прежнему используется для проведения гоночных событий и является популярным местом для проведения гоночных мероприятий. Он также используется в качестве трассы для тестирования автомобилей и как место для обучения водителей."
40,зола,Золдер,Хеусден-Золдер,Бельгия,50.9894,5.25694,,Золдер
41,Дижон,Дижон-Преной,Дижон,Франция,47.3625,4.89913,,Дижон-Преной
42,Даллас,Фейр-Парк,Даллас,США,32.7774,-96.7587,,Фэр-Парк
43,Длинный пляж,Долгий-Бич,Калифорния,США,33.7651,-118.189,,"Википедия: Лонг-Бич, Калифорния"
44,Лас-Вегас,Гараж Геври Каллога,Невада,США,36.1162,-115.174,,Википедия - свободная энциклопедия
45,Ярама,Жарама,Мадрид,Испания,40.6171,-3.58558,,Круговорот Ярма
46,Ваткинс-Глен,Ваткинс-Глен,Нью-Йоркский штат,США,42.3369,-76.9272,,Уитфилдский автодром
47,Аندرсторп,Шторкранберг,Андерсторп,Швеция,57.2653,13.6042,,Скандинавская гоночная трасса
48,Моспорт,Моспорт Интернациональная гоночная трасса,Онтарио,Канада,44.0481,-78.6756,,Моспорт
49,Монжуик,Монжуик,Барселона,Испания,41.3664,2.15167,,Шоссейный круг Монтжуик
50,Нивелль,Нивель-Больвур,Брюссель,Бельгия,50.6211,4.32694,,"Нивель-Бауло́рс — район в Бельгии, находящийся на юге страны и граничащий с Францией. Его название происходит от двух основных городов в районе — Nivelles и Bauloors. Район имеет площадь 185,96 км² и население 306 744 человека (2018 год)."
51,шутка,Шарада-циркут,Клермон-Ферран,Франция,45.7472,3.03889,,Циркада
52,Тремблант,Циркуит Мон-Тремблант,Квебек,Канада,46.1877,-74.6099,,Кирпичный дом на сайте Circuit Mont-Tremblant
53,Эстарсы,Руан-Лесезар,Руан,Франция,49.3306,1.00458,,Руан-Лез-Эссар
54,леманы,Леман,Леман,Франция,47.95,0.224231,,"Circuit де Ла Сартр

Circuit de La Sarthe (также известен как Bugatti Circuit[1]) — автодром в Ла-Сартье, во французской области Луара, который используется для гонок и тест-драйвов."
55,Реймс,Реймс-Гю,Реймс,Франция,49.2542,3.93083,,"Реймс-Гук – это район в городе Реймс во Франции. Он расположен к востоку от центра города, вдоль реки Марна, и известен своим историческим замком и кафедральным собором.

История района Реймс-Гуй тесно связана с историей города Реймс в целом. Реймский собор, расположенный в этом районе, является одним из самых известных готических соборов во Франции и был местом коронования многих французских королей. Замок Реймса, также расположенный в Реймс-Гуй, был построен в XII веке и служил резиденцией для правителей страны.

Реймский собор известен своим впечатляющим архитектурой и внутренним убранством. Он имеет длину 129 метров и ширину 48 метров, с высоким сводчатым потолком и огромными витражами. Внутри собора находятся многочисленные реликвии, включая корону Франции и реликвии, связанные с жизнью Иисуса Христа.

Замок Реймса, расположенный рядом с собором, был построен в XII веке как крепость для защиты города. В последующие века он использовался как королевская резиденция, а затем как тюрьма. Сегодня замок Реймса открыт для публики и является популярной туристической достопримечательностью.

Реймс-Гуй также известен своими виноградниками и винодельнями. Регион является частью винодельческого региона Шампань, и здесь производятся некоторые из самых известных игристых вин в мире. Виноградники и винодельни района Реймса-Гуй предлагают экскурсии и дегустации для посетителей."
56,Джордж,Принс-Джордж-Циркуит,Восточная провинция Каприи,Южная Африка,-33.0486,27.8736,,Принц-Джордж-Циркут
57,Целтвейг,Целтвейг,Стирия,Австрия,47.2039,14.7478,,Зельтовегская воздушная база
58,Аинтрие,Айнтрейн,Ливерпуль,Великобритания,53.4769,-2.94056,,Аин트리 Мотор Ринге́т
59,Боа-Виста,Циркуито да Порту,Опорто,Португалия,41.1705,-8.67325,,Циркито да Боснии
60,Риверсайд,"Международная автодром ""Риверсайд""",Калифорния,США,33.937,-117.273,,Риверсайд Интернешнл Рейсвей
61,авус,Авус,Берлин,Германия,52.4806,13.2514,,"Авус - это автострада в Берлине, Германия. Она проходит через несколько районов Берлина и соединяет центр города с его северным и западным пригородами. Авус является важной транспортной артерией в Берлине и имеет общую длину около 21 километра.

Название ""Авус"" происходит от латинского слова ""Abus"", что означает ""безопасный путь"". Авус была построена в конце 19-го века и открыта для движения в 1873 году, что сделало ее одной из первых автострад в Германии.

Автострада проходит через несколько известных достопримечательностей Берлина, включая Бранденбургские ворота, Рейхстаг и Берлинский кафедральный собор. На Авусе также расположены несколько крупных парков и зеленых пространств, таких как Тиргартен и Großer Tiergarten.

Авус является многополосной автомагистралью с разделительной полосой, что позволяет обеспечивать безопасное и эффективное движение транспортных средств. На автостради есть несколько выходов и въездов, которые позволяют водителям легко добраться до других дорог и районов Берлина.

В целом, Авус является важной транспортной инфраструктурой в Берлине, которая соединяет различные районы города и обеспечивает удобное сообщение между ними. Она также является популярной достопримечательностью для туристов, которые могут наблюдать за городскими пейзажами с этой автострады."
62,Монсанто,Круг Монсанто Парка,Лиссабон,Португалия,38.7197,-9.20306,,Монсантопаркский маршрут
63,Себринг,Северинг Интернациональн Рейсвей,Флорида,США,27.4547,-81.3483,,Шоссейная гонка Себринга
64,аин-диаб,Эйн-Диб,Кассабланка,Марокко,33.5786,-7.6875,,"Айн-Диябский электрический circuit — это интегральная схема, разработанная IBM в 1958 году и используемая в некоторых их компьютерах, включая IBM 704, IBM 709, IBM 7010 и IBM 7015. Он был разработан как более эффективная альтернатива ранее использованному микросхеме Williams Tubeprocessor."
65,Пескара,Пескара,Пескара,Италия,42.475,14.1508,,"Пескара — это автодром в Италии, расположенный в регионе Абруццо, недалеко от города Пескара. Автодром был построен в 1957 году и использовался для проведения автогонок и мотоциклетных гонок. С 1962 по 1974 год на автодроме проходили Гран-при Италии Формулы-1, а с 1980 по 1983 год — Гран-при Сан-Марино."
66,Бремгартен,Круг Бремгартен,Берн,Швейцария,46.9589,7.40194,,Циркут Бремгартен
67,Педралбес,Педральбес,Барселона,Испания,41.3903,2.11667,,Педралбесский круговой маршрут
68,Будда,Международный трасс Будд,Утер-Прадеш,Индия,28.3487,77.5331,,Будд Интернэшнл Кьюбикт
69,Америки,Циркут Америки,Остин,США,30.1328,-97.6411,,Циркут Америки
70,ред-болл-ринг,Ред Булл Ринг,Шпильберг,Австрия,47.2197,14.7647,,Википедия: Ред-Булл-Ринг
71,Сочи,Сочи Автодром,Сочи,Россия,43.4057,39.9578,,Сочи-автодром
72,Имперский порт,Улица Порт Империал,Нью-Джерси,США,40.7769,-74.0111,,Порт-Империйский уличный круг
73,БАК,Бакурический трамплин,Баку,Азербайджан,40.3725,49.8533,,Бакинский городской трасс
