circuitid,circuitref,name,location,country,lat,lng,alt,url
1,albert_park,Albert Park Grand Prix Circuit,Melbourne,Australia,-37.8497,144.968,10.0,http://en.wikipedia.org/wiki/Melbourne_Grand_Prix_Circuit
3,bahrain,Bahrain International Circuit,Sakhir,Bahrain,26.0325,50.5106,,http://en.wikipedia.org/wiki/Bahrain_International_Circuit
5,istanbul,Istanbul Park,Istanbul,Turkey,40.9517,29.405,,http://en.wikipedia.org/wiki/Istanbul_Park
6,monaco,Circuit de Monaco,Monte-Carlo,Monaco,43.7347,7.42056,,http://en.wikipedia.org/wiki/Circuit_de_Monaco
7,villeneuve,Circuit Gilles Villeneuve,Montreal,Canada,45.5,-73.5228,,http://en.wikipedia.org/wiki/Circuit_Gilles_Villeneuve
8,magny_cours,Circuit de Nevers Magny-Cours,Magny Cours,France,46.8642,3.16361,,http://en.wikipedia.org/wiki/Circuit_de_Nevers_Magny-Cours
10,hockenheimring,Hockenheimring,Hockenheim,Germany,49.3278,8.56583,,http://en.wikipedia.org/wiki/Hockenheimring
11,hungaroring,Hungaroring,Budapest,Hungary,47.5789,19.2486,,http://en.wikipedia.org/wiki/Hungaroring
12,valencia,Valencia Street Circuit,Valencia,Spain,39.4589,-0.331667,,http://en.wikipedia.org/wiki/Valencia_Street_Circuit
14,monza,Autodromo Nazionale di Monza,Monza,Italy,45.6156,9.28111,,http://en.wikipedia.org/wiki/Autodromo_Nazionale_Monza
15,marina_bay,Marina Bay Street Circuit,Marina Bay,Singapore,1.2914,103.864,,http://en.wikipedia.org/wiki/Marina_Bay_Street_Circuit
16,fuji,Fuji Speedway,Oyama,Japan,35.3717,138.927,,http://en.wikipedia.org/wiki/Fuji_Speedway
17,shanghai,Shanghai International Circuit,Shanghai,China,31.3389,121.22,,http://en.wikipedia.org/wiki/Shanghai_International_Circuit
20,nurburgring,Nürburgring,Nürburg,Germany,50.3356,6.9475,,http://en.wikipedia.org/wiki/N%C3%BCrburgring
21,imola,Autodromo Enzo e Dino Ferrari,Imola,Italy,44.3439,11.7167,,http://en.wikipedia.org/wiki/Autodromo_Enzo_e_Dino_Ferrari
24,yas_marina,Yas Marina Circuit,Abu Dhabi,UAE,24.4672,54.6031,,http://en.wikipedia.org/wiki/Yas_Marina_Circuit
25,galvez,Autódromo Juan y Oscar Gálvez,Buenos Aires,Argentina,-34.6943,-58.4593,,http://en.wikipedia.org/wiki/Aut%C3%B3dromo_Oscar_Alfredo_G%C3%A1lvez
27,estoril,Autódromo do Estoril,Estoril,Portugal,38.7506,-9.39417,,http://en.wikipedia.org/wiki/Aut%C3%B3dromo_do_Estoril
28,okayama,Okayama International Circuit,Okayama,Japan,34.915,134.221,,http://en.wikipedia.org/wiki/TI_Circuit
34,ricard,Circuit Paul Ricard,Le Castellet,France,43.2506,5.79167,,http://en.wikipedia.org/wiki/Paul_Ricard_Circuit
35,yeongam,Korean International Circuit,Yeongam County,Korea,34.7333,126.417,,http://en.wikipedia.org/wiki/Korean_International_Circuit
36,jacarepagua,Autódromo Internacional Nelson Piquet,Rio de Janeiro,Brazil,-22.9756,-43.395,,http://en.wikipedia.org/wiki/Aut%C3%B3dromo_Internacional_Nelson_Piquet
38,brands_hatch,Brands Hatch,Kent,UK,51.3569,0.263056,,http://en.wikipedia.org/wiki/Brands_Hatch
39,zandvoort,Circuit Park Zandvoort,Zandvoort,Netherlands,52.3888,4.54092,,http://en.wikipedia.org/wiki/Circuit_Zandvoort
40,zolder,Zolder,Heusden-Zolder,Belgium,50.9894,5.25694,,http://en.wikipedia.org/wiki/Zolder
42,dallas,Fair Park,Dallas,USA,32.7774,-96.7587,,http://en.wikipedia.org/wiki/Fair_Park
43,long_beach,Long Beach,California,USA,33.7651,-118.189,,"http://en.wikipedia.org/wiki/Long_Beach,_California"
44,las_vegas,Las Vegas Street Circuit,Nevada,USA,36.1162,-115.174,,"http://en.wikipedia.org/wiki/Las_Vegas,_Nevada"
47,anderstorp,Scandinavian Raceway,Anderstorp,Sweden,57.2653,13.6042,,http://en.wikipedia.org/wiki/Scandinavian_Raceway
51,charade,Charade Circuit,Clermont-Ferrand,France,45.7472,3.03889,,http://en.wikipedia.org/wiki/Charade_Circuit
52,tremblant,Circuit Mont-Tremblant,Quebec,Canada,46.1877,-74.6099,,http://en.wikipedia.org/wiki/Circuit_Mont-Tremblant
54,lemans,Le Mans,Le Mans,France,47.95,0.224231,,http://en.wikipedia.org/wiki/Circuit_de_la_Sarthe#Bugatti_Circuit
58,aintree,Aintree,Liverpool,UK,53.4769,-2.94056,,http://en.wikipedia.org/wiki/Aintree_Motor_Racing_Circuit
59,boavista,Circuito da Boavista,Oporto,Portugal,41.1705,-8.67325,,http://en.wikipedia.org/wiki/Circuito_da_Boavista
62,monsanto,Monsanto Park Circuit,Lisbon,Portugal,38.7197,-9.20306,,http://en.wikipedia.org/wiki/Monsanto_Park_Circuit
64,ain-diab,Ain Diab,Casablanca,Morocco,33.5786,-7.6875,,http://en.wikipedia.org/wiki/Ain-Diab_Circuit
65,pescara,Pescara Circuit,Pescara,Italy,42.475,14.1508,,http://en.wikipedia.org/wiki/Pescara_Circuit
66,bremgarten,Circuit Bremgarten,Bern,Switzerland,46.9589,7.40194,,http://en.wikipedia.org/wiki/Circuit_Bremgarten
67,pedralbes,Circuit de Pedralbes,Barcelona,Spain,41.3903,2.11667,,http://en.wikipedia.org/wiki/Pedralbes_Circuit
68,buddh,Buddh International Circuit,Uttar Pradesh,India,28.3487,77.5331,,http://en.wikipedia.org/wiki/Buddh_International_Circuit
70,red_bull_ring,Red Bull Ring,Spielburg,Austria,47.2197,14.7647,,http://en.wikipedia.org/wiki/Red_Bull_Ring
71,sochi,Sochi Autodrom,Sochi,Russia,43.4057,39.9578,,http://en.wikipedia.org/wiki/Sochi_Autodrom
